{
  "presentations": [
    {
      "name": "HICSS (Hawaii International Conference on System Sciences)",
      "lat": 21.3069,
      "lng": -157.8583,
      "city": "Honolulu, HI",
      "years": ["2026"]
    },
    {
      "name": "ACM KDD (Knowledge Discovery and Data Mining)",
      "lat": 41.3851,
      "lng": 2.1734,
      "city": "Barcelona, Spain",
      "years": ["2024"]
    },
    {
      "name": "IEEE ISI (Intelligence and Security Informatics)",
      "lat": 38.9072,
      "lng": -77.0369,
      "city": "Washington, DC",
      "years": ["2019", "2020", "2021", "2023"]
    },
    {
      "name": "AMCIS (Americas Conference on Information Systems)",
      "lat": 41.8781,
      "lng": -87.6298,
      "city": "Chicago, IL",
      "years": ["2023"]
    },
    {
      "name": "ICIS (International Conference on Information Systems)",
      "lat": 13.7563,
      "lng": 100.5018,
      "city": "Bangkok, Thailand",
      "years": ["2024", "2025"]
    },
    {
      "name": "IEEE S&P Workshop (Security and Privacy)",
      "lat": 37.7749,
      "lng": -122.4194,
      "city": "San Francisco, CA",
      "years": ["2025"]
    }
  ],
  "collaborators": [
    {
      "institution": "University of Arizona",
      "lat": 32.2319,
      "lng": -110.9501,
      "city": "Tucson, AZ",
      "collaborators": ["Hsinchun Chen", "Mark Patton", "Jay Nunamaker"]
    },
    {
      "institution": "Indiana University",
      "lat": 39.1653,
      "lng": -86.5264,
      "city": "Bloomington, IN",
      "collaborators": ["Sagar Samtani", "Ben Lazarine", "Yang Gao"]
    },
    {
      "institution": "University of Texas at San Antonio",
      "lat": 29.4241,
      "lng": -98.4936,
      "city": "San Antonio, TX",
      "collaborators": ["Steven Ullman", "Hongyi Zhu"]
    },
    {
      "institution": "Rochester Institute of Technology",
      "lat": 43.0848,
      "lng": -77.6743,
      "city": "Rochester, NY",
      "collaborators": ["Shanchieh Yang"]
    },
    {
      "institution": "Georgia State University",
      "lat": 33.7537,
      "lng": -84.3863,
      "city": "Atlanta, GA",
      "collaborators": ["Benjamin Ampel (Current)"]
    }
  ]
}
